{"version":0.6,"generator":"Overpass API 0.7.61.5 4133829e","osm3s":{"timestamp_osm_base":"2023-11-10T12:50:12Z","copyright":"The data included in this document is from www.openstreetmap.org. The data is made available under ODbL."},"elements":[{"type":"node","id":5167052721,"lat":41.777774,"lon":21.7409905,"tags":{"addr:city":"Veles","craft":"winery","name":"Chateau Sopot","name:mk":"Шато Сопот","opening_hours":"Mo-Su 09:00-22:00","phone":"+389 78 663 300"}},{"type":"way","id":180716821,"bounds":{"minlat":41.4100532,"minlon":22.2253286,"maxlat":41.4110191,"maxlon":22.2271961},"nodes":[1911710837,1911710805,1911710841,1911783647,1911783687,1911710884,1911783622,1911784427,1911710769,1911783300,1911784588,1911783677,1911710843,1911710798,1911710817,1911710794,1911710837],"geometry":[{"lat":41.4109967,"lon":22.2261756},{"lat":41.4109514,"lon":22.2259239},{"lat":41.4108384,"lon":22.2256334},{"lat":41.4107865,"lon":22.2253286},{"lat":41.4106657,"lon":22.225379},{"lat":41.4105106,"lon":22.225498},{"lat":41.4104547,"lon":22.2254632},{"lat":41.4102115,"lon":22.2258279},{"lat":41.4102827,"lon":22.2259554},{"lat":41.4101014,"lon":22.2261564},{"lat":41.4100532,"lon":22.2263935},{"lat":41.4102664,"lon":22.2267744},{"lat":41.410681,"lon":22.2271961},{"lat":41.4106685,"lon":22.2270367},{"lat":41.4109735,"lon":22.2265108},{"lat":41.4110191,"lon":22.2262817},{"lat":41.4109967,"lon":22.2261756}],"tags":{"amenity":"wine_cellar","craft":"winery","int_name":"Popova Kula","name":"Попова Кула","shop":"wine","tasting":"yes"}},{"type":"way","id":370311640,"bounds":{"minlat":41.5176265,"minlon":22.0341129,"maxlat":41.518024,"maxlon":22.0343605},"nodes":[3740200042,3740200039,3740203943,3740200043,3740200042],"geometry":[{"lat":41.5180203,"lon":22.0341129},{"lat":41.5176265,"lon":22.0341238},{"lat":41.5176302,"lon":22.0343605},{"lat":41.518024,"lon":22.0343496},{"lat":41.5180203,"lon":22.0341129}],"tags":{"building":"yes","craft":"winery","name":"Domaine Lepovo"}},{"type":"way","id":476221803,"bounds":{"minlat":42.0077347,"minlon":21.4902127,"maxlat":42.0080188,"maxlon":21.4906435},"nodes":[3832513020,4698518932,4698518933,4698518934,3832513020],"geometry":[{"lat":42.0078222,"lon":21.4902127},{"lat":42.0077347,"lon":21.4905516},{"lat":42.0079313,"lon":21.4906435},{"lat":42.0080188,"lon":21.4903046},{"lat":42.0078222,"lon":21.4902127}],"tags":{"building":"yes","craft":"winery","name":"Камник","tourism":"wine_cellar"}},{"type":"way","id":533757101,"bounds":{"minlat":41.5798276,"minlon":21.9328402,"maxlat":41.5827239,"maxlon":21.9378856},"nodes":[5177854589,6644606350,5177854590,5177854591,5177854592,5177854589],"geometry":[{"lat":41.5817262,"lon":21.9378856},{"lat":41.581119,"lon":21.9375971},{"lat":41.5798276,"lon":21.9365843},{"lat":41.5817806,"lon":21.9328402},{"lat":41.5827239,"lon":21.9335186},{"lat":41.5817262,"lon":21.9378856}],"tags":{"craft":"winery","name":"Vinarija Stobi","website":"https://www.stobiwinery.mk/"}},{"type":"way","id":1221269982,"bounds":{"minlat":41.436124,"minlon":22.0047292,"maxlat":41.4361972,"maxlon":22.0048268},"nodes":[11324050520,11324050521,11324050522,11324050523,11324050520],"geometry":[{"lat":41.436124,"lon":22.0048024},{"lat":41.4361301,"lon":22.0047292},{"lat":41.436185,"lon":22.0047454},{"lat":41.4361972,"lon":22.0048268},{"lat":41.436124,"lon":22.0048024}],"tags":{"addr:city":"Кавадарци","addr:housenumber":"16","addr:postcode":"1430","addr:street":"Косовска","building":"yes","country":"MKD","craft":"winery","name":"Zaharchev Winery and Distillery","name:mk":"Семејна винарија „Захарчев“","opening_hours":"Mo-Su 08:00-22:00","operator":"SJ","phone":"070 253 103","website":"https://www.zaharchev.mk/"}}]}